[
  {
    "name": "SeaWorld Orlando",
    "lat": 28.4115,
    "lng": -81.4625,
    "description": "Machines throughout the park.",
    "tags": ["theme-park", "Florida"],
    "state": "FL",
    "photo": "https://example.com/photos/seaworld_orlando.jpg"
  },
  {
    "name": "Epcot – Mexico Pavilion",
    "lat": 28.3710,
    "lng": -81.5495,
    "description": "Pressed penny machine inside pavilion, multiple designs.",
    "tags": ["theme-park", "Disney", "Epcot"],
    "state": "FL",
    "photo": "https://example.com/photos/epcot_mexico.jpg"
  },
  {
    "name": "St. Augustine Historic District",
    "lat": 29.8947,
    "lng": -81.3146,
    "description": "Pressed penny machines near local museums and historic shops in downtown St. Augustine.",
    "tags": ["historic", "Florida", "tourist"],
    "state": "FL",
    "photo": "https://example.com/photos/st_augustine.jpg"
  },
  {
    "name": "Jacksonville Zoo and Gardens",
    "lat": 30.3590,
    "lng": -81.6559,
    "description": "Machine near the main entrance.",
    "tags": ["zoo", "Florida"],
    "state": "FL",
    "photo": "https://example.com/photos/jacksonville_zoo.jpg"
  },
  {
    "name": "Pier 60 Clearwater Beach",
    "lat": 27.9771,
    "lng": -82.8267,
    "description": "4‑design machine in gift shop building in front of the pier: mermaid, shark, dolphin, sailboat/palm trees designs. :contentReference[oaicite:1]{index=1}",
    "tags": ["beach", "tourist", "boardwalk"],
    "state": "FL",
    "photo": "https://example.com/photos/pier_60_clearwater.jpg"
  },
  {
    "name": "Disney’s Earport Store – Orlando International Airport",
    "lat": 28.4311,
    "lng": -81.3081,
    "description": "8‑design machine pre‑security in Disney Earport store at MCO. :contentReference[oaicite:2]{index=2}",
    "tags": ["airport", "Disney", "Florida"],
    "state": "FL",
    "photo": ""
  },
  {
    "name": "Universal Studios CityWalk – Orlando",
    "lat": 28.4751,
    "lng": -81.4670,
    "description": "8‑design machine inside the Universal Legacy Store at CityWalk. :contentReference[oaicite:3]{index=3}",
    "tags": ["theme-park", "Universal", "Orlando"],
    "state": "FL",
    "photo": ""
  },
  {
    "name": "Shell World – Key Largo",
    "lat": 25.0868,
    "lng": -80.4473,
    "description": "4‑design machine at Shell World gift shop: Key Largo shell, Key West cone, etc. :contentReference[oaicite:4]{index=4}",
    "tags": ["souvenir shop", "Florida Keys"],
    "state": "FL",
    "photo": ""
  }
]
